{
"type": "FeatureCollection",
"name": "GEOPLUS",
"crs": { "type": "name", "properties": { "name": "urn:ogc:def:crs:OGC:1.3:CRS84" } },
"features": [
{ "type": "Feature", "properties": { "Name": "ALMC" }, "geometry": { "type": "Point", "coordinates": [ -35.714112500000013, -9.606794444444445, 0.0 ] } },
{ "type": "Feature", "properties": { "Name": "BABJ" }, "geometry": { "type": "Point", "coordinates": [ -43.41723357405354, -13.252246053260791, 0.0 ] } },
{ "type": "Feature", "properties": { "Name": "BABR" }, "geometry": { "type": "Point", "coordinates": [ -44.995312467450397, -12.148241662896609, 0.0 ] } },
{ "type": "Feature", "properties": { "Name": "BAIL" }, "geometry": { "type": "Point", "coordinates": [ -39.034700146361352, -14.798240651978331, 0.0 ] } },
{ "type": "Feature", "properties": { "Name": "BAIT" }, "geometry": { "type": "Point", "coordinates": [ -40.30836602137061, -12.530910490425191, 0.0 ] } },
{ "type": "Feature", "properties": { "Name": "BAPA" }, "geometry": { "type": "Point", "coordinates": [ -38.217775215138687, -9.401860332673907, 0.0 ] } },
{ "type": "Feature", "properties": { "Name": "BASV" }, "geometry": { "type": "Point", "coordinates": [ -38.432253722222221, -12.939247222222219, 0.0 ] } },
{ "type": "Feature", "properties": { "Name": "BATF" }, "geometry": { "type": "Point", "coordinates": [ -39.742170200070667, -17.540199892857331, 0.0 ] } },
{ "type": "Feature", "properties": { "Name": "BAVC" }, "geometry": { "type": "Point", "coordinates": [ -40.844536678440022, -14.86205202301135, 0.0 ] } },
{ "type": "Feature", "properties": { "Name": "BRDF" }, "geometry": { "type": "Point", "coordinates": [ -47.877868983333343, -15.949141666666669, 0.0 ] } },
{ "type": "Feature", "properties": { "Name": "CECR" }, "geometry": { "type": "Point", "coordinates": [ -39.412294131044568, -7.230313846975221, 0.0 ] } },
{ "type": "Feature", "properties": { "Name": "ESVT" }, "geometry": { "type": "Point", "coordinates": [ -40.319454894444448, -20.31079444444444, 0.0 ] } },
{ "type": "Feature", "properties": { "Name": "GOGN" }, "geometry": { "type": "Point", "coordinates": [ -49.254673041666663, -16.664727777777781, 0.0 ] } },
{ "type": "Feature", "properties": { "Name": "MGBH" }, "geometry": { "type": "Point", "coordinates": [ -43.924897222222221, -19.94190016666667, 0.0 ] } },
{ "type": "Feature", "properties": { "Name": "MGG4" }, "geometry": { "type": "Point", "coordinates": [ -46.722766666666672, -21.309647222222221, 0.0 ] } },
{ "type": "Feature", "properties": { "Name": "MGIN" }, "geometry": { "type": "Point", "coordinates": [ -46.328025, -22.318561111111109, 0.0 ] } },
{ "type": "Feature", "properties": { "Name": "MGIT" }, "geometry": { "type": "Point", "coordinates": [ -45.452573666666673, -22.41251738888889, 0.0 ] } },
{ "type": "Feature", "properties": { "Name": "MGLA" }, "geometry": { "type": "Point", "coordinates": [ -44.9749, -21.229064488888891, 0.0 ] } },
{ "type": "Feature", "properties": { "Name": "MGPA" }, "geometry": { "type": "Point", "coordinates": [ -45.929334194444444, -22.254497638888889, 0.0 ] } },
{ "type": "Feature", "properties": { "Name": "MGUB" }, "geometry": { "type": "Point", "coordinates": [ -48.256049352777779, -18.919163888888889, 0.0 ] } },
{ "type": "Feature", "properties": { "Name": "MGVI" }, "geometry": { "type": "Point", "coordinates": [ -42.869989491666672, -20.761500547222219, 0.0 ] } },
{ "type": "Feature", "properties": { "Name": "MTCU" }, "geometry": { "type": "Point", "coordinates": [ -56.06986655, -15.55526388888889, 0.0 ] } },
{ "type": "Feature", "properties": { "Name": "PBCG" }, "geometry": { "type": "Point", "coordinates": [ -35.907137688888888, -7.213677777777778, 0.0 ] } },
{ "type": "Feature", "properties": { "Name": "PBJP" }, "geometry": { "type": "Point", "coordinates": [ -34.873423975, -7.136277777777778, 0.0 ] } },
{ "type": "Feature", "properties": { "Name": "PBPT" }, "geometry": { "type": "Point", "coordinates": [ -37.277001062563897, -7.027146506009019, 0.0 ] } },
{ "type": "Feature", "properties": { "Name": "PEAF" }, "geometry": { "type": "Point", "coordinates": [ -37.6346143566576, -7.748461805041748, 0.0 ] } },
{ "type": "Feature", "properties": { "Name": "PEC1" }, "geometry": { "type": "Point", "coordinates": [ -35.983463145830228, -8.29365221446354, 0.0 ] } },
{ "type": "Feature", "properties": { "Name": "PEPE" }, "geometry": { "type": "Point", "coordinates": [ -40.502253450946277, -9.400625761010721, 0.0 ] } },
{ "type": "Feature", "properties": { "Name": "PERE" }, "geometry": { "type": "Point", "coordinates": [ -34.882969498372283, -8.058796070621478, 0.0 ] } },
{ "type": "Feature", "properties": { "Name": "PISR" }, "geometry": { "type": "Point", "coordinates": [ -42.688594391793103, -9.015460814738812, 0.0 ] } },
{ "type": "Feature", "properties": { "Name": "PRCT" }, "geometry": { "type": "Point", "coordinates": [ -49.26997780720022, -25.438492433757279, 0.0 ] } },
{ "type": "Feature", "properties": { "Name": "PRMA" }, "geometry": { "type": "Point", "coordinates": [ -51.938424211111098, -23.409688888888891, 0.0 ] } },
{ "type": "Feature", "properties": { "Name": "RJAR" }, "geometry": { "type": "Point", "coordinates": [ -44.30220225, -22.999191666666668, 0.0 ] } },
{ "type": "Feature", "properties": { "Name": "RJBM" }, "geometry": { "type": "Point", "coordinates": [ -44.172083333333333, -22.541923419444451, 0.0 ] } },
{ "type": "Feature", "properties": { "Name": "RJBZ" }, "geometry": { "type": "Point", "coordinates": [ -41.946241666666673, -22.781567055555559, 0.0 ] } },
{ "type": "Feature", "properties": { "Name": "RJCG" }, "geometry": { "type": "Point", "coordinates": [ -41.326155555555559, -21.764865805555559, 0.0 ] } },
{ "type": "Feature", "properties": { "Name": "RJIT" }, "geometry": { "type": "Point", "coordinates": [ -43.673497111111111, -22.87190422222222, 0.0 ] } },
{ "type": "Feature", "properties": { "Name": "RJMA" }, "geometry": { "type": "Point", "coordinates": [ -41.782728215506403, -22.384662752352259, 0.0 ] } },
{ "type": "Feature", "properties": { "Name": "RJNT" }, "geometry": { "type": "Point", "coordinates": [ -43.133803980555562, -22.905935766666669, 0.0 ] } },
{ "type": "Feature", "properties": { "Name": "RJR1" }, "geometry": { "type": "Point", "coordinates": [ -43.350675361111122, -22.88721111111111, 0.0 ] } },
{ "type": "Feature", "properties": { "Name": "RJVA" }, "geometry": { "type": "Point", "coordinates": [ -43.651862738888887, -22.402211008333332, 0.0 ] } },
{ "type": "Feature", "properties": { "Name": "RNMS" }, "geometry": { "type": "Point", "coordinates": [ -37.320397805555558, -5.245488888888889, 0.0 ] } },
{ "type": "Feature", "properties": { "Name": "RNNA" }, "geometry": { "type": "Point", "coordinates": [ -35.207707925, -5.836141666666666, 0.0 ] } },
{ "type": "Feature", "properties": { "Name": "RNPF" }, "geometry": { "type": "Point", "coordinates": [ -38.205140152089832, -6.114114140253101, 0.0 ] } },
{ "type": "Feature", "properties": { "Name": "RSC1" }, "geometry": { "type": "Point", "coordinates": [ -51.16159583333333, -29.167325, 0.0 ] } },
{ "type": "Feature", "properties": { "Name": "RSLP" }, "geometry": { "type": "Point", "coordinates": [ -51.14802816196277, -29.761142424033899, 0.0 ] } },
{ "type": "Feature", "properties": { "Name": "RSPA" }, "geometry": { "type": "Point", "coordinates": [ -51.119764788888887, -30.07404166666667, 0.0 ] } },
{ "type": "Feature", "properties": { "Name": "RSSM" }, "geometry": { "type": "Point", "coordinates": [ -53.716593141666671, -29.718925, 0.0 ] } },
{ "type": "Feature", "properties": { "Name": "SCAQ" }, "geometry": { "type": "Point", "coordinates": [ -48.737440769444447, -26.393755555555551, 0.0 ] } },
{ "type": "Feature", "properties": { "Name": "SCFL" }, "geometry": { "type": "Point", "coordinates": [ -48.542083386111109, -27.594433333333331, 0.0 ] } },
{ "type": "Feature", "properties": { "Name": "SEAJ" }, "geometry": { "type": "Point", "coordinates": [ -37.072764261315648, -10.92896615932402, 0.0 ] } },
{ "type": "Feature", "properties": { "Name": "SPA1" }, "geometry": { "type": "Point", "coordinates": [ -50.415938841666659, -22.6555701, 0.0 ] } },
{ "type": "Feature", "properties": { "Name": "SPAB" }, "geometry": { "type": "Point", "coordinates": [ -49.239975283333337, -22.878041086111111, 0.0 ] } },
{ "type": "Feature", "properties": { "Name": "SPAQ" }, "geometry": { "type": "Point", "coordinates": [ -48.20610963888889, -21.78667608333334, 0.0 ] } },
{ "type": "Feature", "properties": { "Name": "SPAR" }, "geometry": { "type": "Point", "coordinates": [ -50.439788133333323, -21.184666666666669, 0.0 ] } },
{ "type": "Feature", "properties": { "Name": "SPB3" }, "geometry": { "type": "Point", "coordinates": [ -48.57845275, -20.57172222222222, 0.0 ] } },
{ "type": "Feature", "properties": { "Name": "SPBG" }, "geometry": { "type": "Point", "coordinates": [ -46.540893472222223, -22.956492, 0.0 ] } },
{ "type": "Feature", "properties": { "Name": "SPBO" }, "geometry": { "type": "Point", "coordinates": [ -48.432300561111099, -22.852466666666668, 0.0 ] } },
{ "type": "Feature", "properties": { "Name": "SPBR" }, "geometry": { "type": "Point", "coordinates": [ -49.087532213888899, -22.34610555555555, 0.0 ] } },
{ "type": "Feature", "properties": { "Name": "SPBS" }, "geometry": { "type": "Point", "coordinates": [ -50.734485030555547, -21.923913030555561, 0.0 ] } },
{ "type": "Feature", "properties": { "Name": "SPC1" }, "geometry": { "type": "Point", "coordinates": [ -47.062693288888887, -22.816286111111111, 0.0 ] } },
{ "type": "Feature", "properties": { "Name": "SPCL" }, "geometry": { "type": "Point", "coordinates": [ -47.903875, -22.000411388888889, 0.0 ] } },
{ "type": "Feature", "properties": { "Name": "SPCN" }, "geometry": { "type": "Point", "coordinates": [ -47.924968519444448, -25.02023888888889, 0.0 ] } },
{ "type": "Feature", "properties": { "Name": "SPCT" }, "geometry": { "type": "Point", "coordinates": [ -49.000575583333337, -21.1484, 0.0 ] } },
{ "type": "Feature", "properties": { "Name": "SPDR" }, "geometry": { "type": "Point", "coordinates": [ -51.554258333333323, -21.46160555555555, 0.0 ] } },
{ "type": "Feature", "properties": { "Name": "SPFA" }, "geometry": { "type": "Point", "coordinates": [ -47.436486444444427, -20.55093888888889, 0.0 ] } },
{ "type": "Feature", "properties": { "Name": "SPFE" }, "geometry": { "type": "Point", "coordinates": [ -50.228695194444448, -20.262875, 0.0 ] } },
{ "type": "Feature", "properties": { "Name": "SPGJ" }, "geometry": { "type": "Point", "coordinates": [ -46.273170036111111, -23.992416666666671, 0.0 ] } },
{ "type": "Feature", "properties": { "Name": "SPI1" }, "geometry": { "type": "Point", "coordinates": [ -49.091785552777779, -23.42283333333333, 0.0 ] } },
{ "type": "Feature", "properties": { "Name": "SPIL" }, "geometry": { "type": "Point", "coordinates": [ -48.812209455555553, -21.598007669444439, 0.0 ] } },
{ "type": "Feature", "properties": { "Name": "SPIP" }, "geometry": { "type": "Point", "coordinates": [ -48.02116133611112, -23.54151944444445, 0.0 ] } },
{ "type": "Feature", "properties": { "Name": "SPIS" }, "geometry": { "type": "Point", "coordinates": [ -51.343384769444441, -20.427786111111111, 0.0 ] } },
{ "type": "Feature", "properties": { "Name": "SPIV" }, "geometry": { "type": "Point", "coordinates": [ -48.88848333333334, -23.99945555555556, 0.0 ] } },
{ "type": "Feature", "properties": { "Name": "SPJB" }, "geometry": { "type": "Point", "coordinates": [ -48.286702866666673, -21.241072222222218, 0.0 ] } },
{ "type": "Feature", "properties": { "Name": "SPJD" }, "geometry": { "type": "Point", "coordinates": [ -46.873928033333328, -23.236113888888891, 0.0 ] } },
{ "type": "Feature", "properties": { "Name": "SPJS" }, "geometry": { "type": "Point", "coordinates": [ -50.555225561111108, -20.269344444444439, 0.0 ] } },
{ "type": "Feature", "properties": { "Name": "SPJU" }, "geometry": { "type": "Point", "coordinates": [ -48.548938566666671, -22.31570833333333, 0.0 ] } },
{ "type": "Feature", "properties": { "Name": "SPL1" }, "geometry": { "type": "Point", "coordinates": [ -49.764930836111112, -21.67340045833333, 0.0 ] } },
{ "type": "Feature", "properties": { "Name": "SPL2" }, "geometry": { "type": "Point", "coordinates": [ -45.12188901388889, -22.752230555555549, 0.0 ] } },
{ "type": "Feature", "properties": { "Name": "SPLM" }, "geometry": { "type": "Point", "coordinates": [ -47.591916, -22.42525, 0.0 ] } },
{ "type": "Feature", "properties": { "Name": "SPMA" }, "geometry": { "type": "Point", "coordinates": [ -49.945471169444453, -22.226161111111111, 0.0 ] } },
{ "type": "Feature", "properties": { "Name": "SPMG" }, "geometry": { "type": "Point", "coordinates": [ -46.948663222222223, -22.34866111111111, 0.0 ] } },
{ "type": "Feature", "properties": { "Name": "SPMI" }, "geometry": { "type": "Point", "coordinates": [ -51.086379194444447, -21.10049444444445, 0.0 ] } },
{ "type": "Feature", "properties": { "Name": "SPMO" }, "geometry": { "type": "Point", "coordinates": [ -46.702625555555557, -24.112527777777778, 0.0 ] } },
{ "type": "Feature", "properties": { "Name": "SPO1" }, "geometry": { "type": "Point", "coordinates": [ -47.893425, -20.706913888888892, 0.0 ] } },
{ "type": "Feature", "properties": { "Name": "SPOR" }, "geometry": { "type": "Point", "coordinates": [ -49.843288008333332, -22.999169444444441, 0.0 ] } },
{ "type": "Feature", "properties": { "Name": "SPP5" }, "geometry": { "type": "Point", "coordinates": [ -47.645799583333343, -22.733066666666669, 0.0 ] } },
{ "type": "Feature", "properties": { "Name": "SPPC" }, "geometry": { "type": "Point", "coordinates": [ -51.77907548333333, -21.278961558333329, 0.0 ] } },
{ "type": "Feature", "properties": { "Name": "SPPI" }, "geometry": { "type": "Point", "coordinates": [ -47.416903702777773, -22.0177, 0.0 ] } },
{ "type": "Feature", "properties": { "Name": "SPPP" }, "geometry": { "type": "Point", "coordinates": [ -51.408534025, -22.119905555555551, 0.0 ] } },
{ "type": "Feature", "properties": { "Name": "SPR1" }, "geometry": { "type": "Point", "coordinates": [ -47.759117777777767, -21.19565, 0.0 ] } },
{ "type": "Feature", "properties": { "Name": "SPRG" }, "geometry": { "type": "Point", "coordinates": [ -47.861345866666667, -24.534116666666669, 0.0 ] } },
{ "type": "Feature", "properties": { "Name": "SPRI" }, "geometry": { "type": "Point", "coordinates": [ -49.40161382777778, -20.803549155555551, 0.0 ] } },
{ "type": "Feature", "properties": { "Name": "SPSC" }, "geometry": { "type": "Point", "coordinates": [ -47.436437213888887, -23.46768888888889, 0.0 ] } },
{ "type": "Feature", "properties": { "Name": "SPSE" }, "geometry": { "type": "Point", "coordinates": [ -45.6216667, -23.784094444444442, 0.0 ] } },
{ "type": "Feature", "properties": { "Name": "SPSI" }, "geometry": { "type": "Point", "coordinates": [ -46.228712388888887, -23.321122222222211, 0.0 ] } },
{ "type": "Feature", "properties": { "Name": "SPSJ" }, "geometry": { "type": "Point", "coordinates": [ -48.448243246997613, -23.207133333333331, 0.0 ] } },
{ "type": "Feature", "properties": { "Name": "SPSM" }, "geometry": { "type": "Point", "coordinates": [ -48.158605194444441, -22.569511111111112, 0.0 ] } },
{ "type": "Feature", "properties": { "Name": "SPSP" }, "geometry": { "type": "Point", "coordinates": [ -46.677284627777773, -23.547855555555561, 0.0 ] } },
{ "type": "Feature", "properties": { "Name": "SPTB" }, "geometry": { "type": "Point", "coordinates": [ -45.572928138888898, -22.996675138888889, 0.0 ] } },
{ "type": "Feature", "properties": { "Name": "SPTU" }, "geometry": { "type": "Point", "coordinates": [ -50.49236961388889, -21.929116666666669, 0.0 ] } },
{ "type": "Feature", "properties": { "Name": "SPUB" }, "geometry": { "type": "Point", "coordinates": [ -45.118901491666669, -23.500177777777779, 0.0 ] } }
]
}
